{
	"result":
	[
	 {"福建":
	 [{"厦门市":
		[{"Name":"厦门_海沧海富路2店","latitude":"24.497771","longitude":"118.035195","tel":"18650100798","address":"厦门市海沧区海沧生活二区16号"},
		 
		 {"Name":"厦门_海沧未来海岸店","latitude":"24.463088","longitude":"118.032277","tel":"0595-88577867","address":"福建省厦门市海沧区嵩屿镇未来海岸阿罗海商场1F-112#"},
		 
		 {"Name":"厦门_禾祥店","latitude":"24.471682","longitude":"118.09768","tel":"0595-88577867","address":"厦门禾祥西路B10号店面"},
		 
		 {"Name":"厦门_中山店","latitude":"24.457151","longitude":"118.076909","tel":"0595-88577867","address":"厦门市中山路49-55号"},
		 
		 {"Name":"厦门_铜锣湾店","latitude":"24.458401","longitude":"118.084462","tel":"0595-88577867","address":"中山路317号名汇铜锣湾广场"},
		 
		 {"Name":"厦门_富山店","latitude":"24.480118","longitude":"118.119309","tel":"0595-88577867","address":"厦门市湖滨南路东段宝福西侧万禾广场06号店"},
		 
		 {"Name":"厦门_汇腾天虹","latitude":"24.481368","longitude":"118.122399","tel":"0595-88577867","address":"厦门市嘉禾路323号汇腾大厦四楼"},
		 
		 {"Name":"厦门_松柏店","latitude":"24.494491","longitude":"118.115705","tel":"0595-88577867","address":"厦门市莲岳路189号武夷工贸店面"},
		 
		 {"Name":"厦门_明发店","latitude":"24.477306","longitude":"118.15965","tel":"0595-88577867","address":"厦门市莲前西路明发广场A1049-1064号"},
		 
		 {"Name":"厦门_海沧未来海岸店","latitude":"24.460432","longitude":"118.032964","tel":"0595-88577867","address":"福建省厦门市海沧区嵩屿镇未来海岸阿罗海商场1F-112#"},
		 
		 {"Name":"厦门_海沧海富路2店","latitude":"24.497146","longitude":"118.036054","tel":"18650100798","address":"厦门市海沧区海沧生活二区16号"},
		 
		 {"Name":"厦门_吕岭店","latitude":"24.49371","longitude":"118.13151","tel":"0595-88577867","address":"厦门市湖里区吕岭路45号 "},
		 
		 {"Name":"厦门_杏林牡丹园店","latitude":"24.567889","longitude":"118.042062","tel":"0592-6097966","address":"福建厦门杏林区牡丹园 "},
		 
		 {"Name":"厦门_塘埔店","latitude":"24.575695","longitude":"118.100427","tel":"18705918181","address":"厦门集美区塘埔路5-7号 "},
		 
		 {"Name":"厦门_同安新三秀店","latitude":"24.733112","longitude":"118.154084","tel":"0592-7311913","address":"新三秀街10号(厦门同安县) "},
		 
		 {"Name":"厦门_同安乌涂店","latitude":"24.708709","longitude":"118.1237","tel":"0595-88577867","address":"福建省厦门市同安区新民镇乌涂商业街415之3号店铺"},
		 
		 {"Name":"厦门_翔安区新店镇新兴街456号七匹狼专卖店","latitude":"24.608006","longitude":"118.245309","tel":"","address":"厦门翔安区新店镇 "}
		 ]
		}]
	 }
	]
}
